$GPGGA,224657.000,4025.5072,N,08655.6687,W,1,05,2.00,199.8,M,-33.8,M,,*57
$GPRMC,224657.000,A,4025.5072,N,08655.6687,W,1.62,9.92,040221,,,A*7C
$GPGGA,224658.000,4025.5077,N,08655.6686,W,1,05,2.00,199.9,M,-33.8,M,,*5D
$GPRMC,224658.000,A,4025.5077,N,08655.6686,W,1.56,10.73,040221,,,A*47
$GPGGA,224659.000,4025.5088,N,08655.6683,W,1,05,2.00,200.0,M,-33.8,M,,*53
$GPRMC,224659.000,A,4025.5088,N,08655.6683,W,2.96,13.97,040221,,,A*45
$GPGGA,224700.000,4025.5100,N,08655.6681,W,1,05,2.00,200.2,M,-33.8,M,,*5F
$GPRMC,224700.000,A,4025.5100,N,08655.6681,W,2.54,6.30,040221,,,A*7C
$GPGGA,224701.000,4025.5108,N,08655.6679,W,1,05,2.00,200.3,M,-33.8,M,,*50
$GPRMC,224701.000,A,4025.5108,N,08655.6679,W,1.40,16.25,040221,,,A*41
$GPGGA,224702.000,4025.5116,N,08655.6677,W,1,05,1.45,200.6,M,-33.8,M,,*55
$GPRMC,224702.000,A,4025.5116,N,08655.6677,W,0.24,184.90,040221,,,A*74
$GPGGA,224703.000,4025.5123,N,08655.6676,W,1,05,1.45,200.7,M,-33.8,M,,*52
$GPRMC,224703.000,A,4025.5123,N,08655.6676,W,0.27,2.83,040221,,,A*7C
$GPGGA,224704.000,4025.5127,N,08655.6675,W,1,05,2.00,200.8,M,-33.8,M,,*5F
$GPRMC,224704.000,A,4025.5127,N,08655.6675,W,0.59,7.96,040221,,,A*74
$GPGGA,224705.000,4025.5131,N,08655.6674,W,1,05,2.00,201.0,M,-33.8,M,,*51
$GPRMC,224705.000,A,4025.5131,N,08655.6674,W,1.04,356.29,040221,,,A*79
$GPGGA,224706.000,4025.5132,N,08655.6675,W,1,05,2.00,201.1,M,-33.8,M,,*51
$GPRMC,224706.000,A,4025.5132,N,08655.6675,W,1.14,10.67,040221,,,A*42
$GPGGA,224707.000,4025.5138,N,08655.6673,W,1,05,2.00,201.3,M,-33.8,M,,*5E
$GPRMC,224707.000,A,4025.5138,N,08655.6673,W,1.11,32.59,040221,,,A*47
$GPGGA,224708.000,4025.5139,N,08655.6672,W,1,05,1.45,201.7,M,-33.8,M,,*57
$GPRMC,224708.000,A,4025.5139,N,08655.6672,W,0.13,22.10,040221,,,A*47
$GPGGA,224709.000,4025.5147,N,08655.6671,W,1,05,1.45,201.8,M,-33.8,M,,*53
$GPRMC,224709.000,A,4025.5147,N,08655.6671,W,0.34,357.65,040221,,,A*7A
$GPGGA,224710.000,4025.5154,N,08655.6670,W,1,05,2.00,201.9,M,-33.8,M,,*5B
$GPRMC,224710.000,A,4025.5154,N,08655.6670,W,0.51,337.85,040221,,,A*7A
$GPGGA,224711.000,4025.5166,N,08655.6670,W,1,05,1.45,202.0,M,-33.8,M,,*53
$GPRMC,224711.000,A,4025.5166,N,08655.6670,W,1.18,331.79,040221,,,A*73
$GPGGA,224712.000,4025.5178,N,08655.6674,W,1,05,1.46,202.2,M,-33.8,M,,*5A
$GPRMC,224712.000,A,4025.5178,N,08655.6674,W,1.95,320.32,040221,,,A*71
$GPGGA,224713.000,4025.5191,N,08655.6686,W,1,05,1.46,202.3,M,-33.8,M,,*50
$GPRMC,224713.000,A,4025.5191,N,08655.6686,W,3.45,308.21,040221,,,A*7D
$GPGGA,224714.000,4025.5205,N,08655.6701,W,1,05,1.45,202.5,M,-33.8,M,,*52
$GPRMC,224714.000,A,4025.5205,N,08655.6701,W,4.65,303.09,040221,,,A*7E
$GPGGA,224715.000,4025.5221,N,08655.6717,W,1,05,1.45,202.7,M,-33.8,M,,*50
$GPRMC,224715.000,A,4025.5221,N,08655.6717,W,4.99,298.29,040221,,,A*7C
$GPGGA,224716.000,4025.5234,N,08655.6733,W,1,05,1.46,202.9,M,-33.8,M,,*5C
$GPRMC,224716.000,A,4025.5234,N,08655.6733,W,5.13,293.16,040221,,,A*79
$GPGGA,224717.000,4025.5248,N,08655.6752,W,1,05,1.45,203.1,M,-33.8,M,,*5B
$GPRMC,224717.000,A,4025.5248,N,08655.6752,W,5.49,289.58,040221,,,A*7A
$GPGGA,224718.000,4025.5260,N,08655.6770,W,1,05,1.45,203.3,M,-33.8,M,,*5C
$GPRMC,224718.000,A,4025.5260,N,08655.6770,W,5.68,285.61,040221,,,A*7A
$GPGGA,224719.000,4025.5272,N,08655.6771,W,1,05,1.45,203.5,M,-33.8,M,,*59
$GPRMC,224719.000,A,4025.5272,N,08655.6771,W,5.19,285.54,040221,,,A*79
$GPGGA,224720.000,4025.5284,N,08655.6768,W,1,05,1.45,203.6,M,-33.8,M,,*51
$GPRMC,224720.000,A,4025.5284,N,08655.6768,W,4.59,284.89,040221,,,A*76
$GPGGA,224721.000,4025.5294,N,08655.6754,W,1,05,1.46,203.7,M,-33.8,M,,*5C
$GPRMC,224721.000,A,4025.5294,N,08655.6754,W,3.71,293.23,040221,,,A*72
$GPGGA,224722.000,4025.5305,N,08655.6738,W,1,05,1.46,203.7,M,-33.8,M,,*5C
$GPRMC,224722.000,A,4025.5305,N,08655.6738,W,3.07,305.16,040221,,,A*7B
$GPGGA,224723.000,4025.5318,N,08655.6718,W,1,05,1.46,203.8,M,-33.8,M,,*5C
$GPRMC,224723.000,A,4025.5318,N,08655.6718,W,2.80,321.99,040221,,,A*7B
$GPGGA,224724.000,4025.5336,N,08655.6681,W,1,05,1.45,203.8,M,-33.8,M,,*55
$GPRMC,224724.000,A,4025.5336,N,08655.6681,W,2.82,356.09,040221,,,A*7A
$GPGGA,224725.000,4025.5370,N,08655.6647,W,1,05,2.00,204.0,M,-33.8,M,,*51
$GPRMC,224725.000,A,4025.5370,N,08655.6647,W,3.64,10.50,040221,,,A*47
$GPGGA,224726.000,4025.5589,N,08655.6562,W,1,05,2.00,206.2,M,-33.8,M,,*56
$GPRMC,224726.000,A,4025.5589,N,08655.6562,W,5.53,16.42,040221,,,A*47
$GPGGA,224727.000,4025.5686,N,08655.6517,W,1,05,1.45,207.1,M,-33.8,M,,*59
$GPRMC,224727.000,A,4025.5686,N,08655.6517,W,5.94,21.49,040221,,,A*4C
$GPGGA,224728.000,4025.5744,N,08655.6489,W,1,05,1.45,207.6,M,-33.8,M,,*58
$GPRMC,224728.000,A,4025.5744,N,08655.6489,W,5.99,22.05,040221,,,A*4C
$GPGGA,224729.000,4025.5799,N,08655.6471,W,1,05,1.46,208.1,M,-33.8,M,,*55
$GPRMC,224729.000,A,4025.5799,N,08655.6471,W,5.84,22.62,040221,,,A*47
$GPGGA,224730.000,4025.5829,N,08655.6458,W,1,05,1.46,208.4,M,-33.8,M,,*57
$GPRMC,224730.000,A,4025.5829,N,08655.6458,W,5.47,25.71,040221,,,A*4A
$GPGGA,224731.000,4025.5858,N,08655.6445,W,1,04,1.50,208.6,M,-33.8,M,,*58
$GPRMC,224731.000,A,4025.5858,N,08655.6445,W,5.20,26.54,040221,,,A*44
$GPGGA,224732.000,4025.5875,N,08655.6438,W,1,04,1.50,208.8,M,-33.8,M,,*50
$GPRMC,224732.000,A,4025.5875,N,08655.6438,W,4.66,26.08,040221,,,A*48
$GPGGA,224733.000,4025.5883,N,08655.6430,W,1,04,1.50,209.1,M,-33.8,M,,*58
$GPRMC,224733.000,A,4025.5883,N,08655.6430,W,3.32,28.14,040221,,,A*4D
$GPGGA,224734.000,4025.5886,N,08655.6421,W,1,04,1.50,209.3,M,-33.8,M,,*58
$GPRMC,224734.000,A,4025.5886,N,08655.6421,W,2.22,39.14,040221,,,A*4F
$GPGGA,224735.000,4025.5888,N,08655.6412,W,1,04,1.50,209.4,M,-33.8,M,,*50
$GPRMC,224735.000,A,4025.5888,N,08655.6412,W,1.85,55.32,040221,,,A*40
$GPGGA,224736.000,4025.5889,N,08655.6403,W,1,04,1.50,209.5,M,-33.8,M,,*53
$GPRMC,224736.000,A,4025.5889,N,08655.6403,W,1.75,68.05,040221,,,A*47
$GPGGA,224737.000,4025.5894,N,08655.6393,W,1,05,1.46,209.6,M,-33.8,M,,*55
$GPRMC,224737.000,A,4025.5894,N,08655.6393,W,1.73,77.40,040221,,,A*4D
$GPGGA,224738.000,4025.5901,N,08655.6386,W,1,05,1.46,209.7,M,-33.8,M,,*52
$GPRMC,224738.000,A,4025.5901,N,08655.6386,W,1.49,75.58,040221,,,A*49
$GPGGA,224739.000,4025.5903,N,08655.6381,W,1,05,1.46,209.8,M,-33.8,M,,*59
$GPRMC,224739.000,A,4025.5903,N,08655.6381,W,1.43,80.94,040221,,,A*4D
$GPGGA,224740.000,4025.5903,N,08655.6376,W,1,05,1.46,209.8,M,-33.8,M,,*5F
$GPRMC,224740.000,A,4025.5903,N,08655.6376,W,1.36,85.65,040221,,,A*42
$GPGGA,224741.000,4025.5908,N,08655.6375,W,1,05,1.46,209.9,M,-33.8,M,,*57
$GPRMC,224741.000,A,4025.5908,N,08655.6375,W,0.89,61.96,040221,,,A*48
$GPGGA,224742.000,4025.5912,N,08655.6376,W,1,05,1.46,209.9,M,-33.8,M,,*5C
$GPRMC,224742.000,A,4025.5912,N,08655.6376,W,0.87,33.75,040221,,,A*47
$GPGGA,224743.000,4025.5914,N,08655.6374,W,1,05,2.00,210.0,M,-33.8,M,,*59
$GPRMC,224743.000,A,4025.5914,N,08655.6374,W,0.87,34.27,040221,,,A*42
$GPGGA,224744.000,4025.5916,N,08655.6372,W,1,05,2.00,210.0,M,-33.8,M,,*5A
$GPRMC,224744.000,A,4025.5916,N,08655.6372,W,0.86,35.14,040221,,,A*41
$GPGGA,224745.000,4025.5918,N,08655.6370,W,1,05,2.00,210.1,M,-33.8,M,,*56
$GPRMC,224745.000,A,4025.5918,N,08655.6370,W,0.86,36.30,040221,,,A*49
$GPGGA,224746.000,4025.5919,N,08655.6367,W,1,05,2.00,210.1,M,-33.8,M,,*52
$GPRMC,224746.000,A,4025.5919,N,08655.6367,W,0.86,37.81,040221,,,A*46
$GPGGA,224747.000,4025.5921,N,08655.6365,W,1,05,2.00,210.2,M,-33.8,M,,*59
$GPRMC,224747.000,A,4025.5921,N,08655.6365,W,0.86,39.66,040221,,,A*49
$GPGGA,224748.000,4025.5922,N,08655.6362,W,1,05,2.00,210.2,M,-33.8,M,,*52
$GPRMC,224748.000,A,4025.5922,N,08655.6362,W,0.87,41.76,040221,,,A*4D
$GPGGA,224749.000,4025.5923,N,08655.6359,W,1,05,2.00,210.3,M,-33.8,M,,*5B
$GPRMC,224749.000,A,4025.5923,N,08655.6359,W,0.88,43.81,040221,,,A*40
$GPGGA,224750.000,4025.5925,N,08655.6355,W,1,05,2.00,210.3,M,-33.8,M,,*59
$GPRMC,224750.000,A,4025.5925,N,08655.6355,W,0.90,46.00,040221,,,A*47